{"results": [{"fsq_id": "4c7ea63ed51ea143934d589f", "categories": [{"id": 13003, "name": "Bar", "icon": {"prefix": "https://ss3.4sqi.net/img/categories_v2/nightlife/pub_", "suffix": ".png"}}], "chains": [], "distance": 1925, "geocodes": {"main": {"latitude": 40.740486, "longitude": -74.00549}, "roof": {"latitude": 40.740486, "longitude": -74.00549}}, "link": "/v3/places/4c7ea63ed51ea143934d589f", "location": {"address": "29 9th Ave", "census_block": "360610079004000", "country": "US", "cross_street": "btw 13th & 14th", "dma": "New York", "formatted_address": "29 9th Ave (btw 13th & 14th), New York, NY 10014", "locality": "New York", "neighborhood": ["Chelsea"], "postcode": "10014", "region": "NY"}, "name": "Soho House 6th Floor Bar", "related_places": {"parent": {"fsq_id": "40a16900f964a520f9f21ee3", "name": "Soho House US"}}, "timezone": "America/New_York"}, {"fsq_id": "4c460e13342c1b8d2e6ab589", "categories": [{"id": 13003, "name": "Bar", "icon": {"prefix": "https://ss3.4sqi.net/img/categories_v2/nightlife/pub_", "suffix": ".png"}}, {"id": 13058, "name": "Hot Dog Joint", "icon": {"prefix": "https://ss3.4sqi.net/img/categories_v2/food/hotdog_", "suffix": ".png"}}, {"id": 13068, "name": "American Restaurant", "icon": {"prefix": "https://ss3.4sqi.net/img/categories_v2/food/default_", "suffix": ".png"}}], "chains": [], "distance": 4926, "geocodes": {"main": {"latitude": 40.749387, "longitude": -73.955526}, "roof": {"latitude": 40.749387, "longitude": -73.955526}}, "link": "/v3/places/4c460e13342c1b8d2e6ab589", "location": {"address": "440 44th Dr", "census_block": "360810001031002", "country": "US", "cross_street": "East River & Vernon Blvd", "dma": "New York", "formatted_address": "440 44th Dr (East River & Vernon Blvd), Long Island City, NY 11101", "locality": "Queens", "neighborhood": ["Beekman"], "postcode": "11101", "region": "NY"}, "name": "Anable Basin Sailing Bar & Grill", "related_places": {}, "timezone": "America/New_York"}, {"fsq_id": "5595c485498e31f9374adc0b", "categories": [{"id": 13006, "name": "Beer Bar", "icon": {"prefix": "https://ss3.4sqi.net/img/categories_v2/nightlife/pub_", "suffix": ".png"}}], "chains": [], "distance": 6152, "geocodes": {"main": {"latitude": 40.675145, "longitude": -73.966927}, "roof": {"latitude": 40.675145, "longitude": -73.966927}}, "link": "/v3/places/5595c485498e31f9374adc0b", "location": {"address": "176 Underhill Ave", "census_block": "360470207002000", "country": "US", "cross_street": "Sterling Pl", "dma": "New York", "formatted_address": "176 Underhill Ave (Sterling Pl), Brooklyn, NY 11238", "locality": "Brooklyn", "neighborhood": ["Prospect Heights"], "postcode": "11238", "region": "NY"}, "name": "Gold Star Beer Counter", "related_places": {"children": [{"fsq_id": "58dd09108ab03f7e1b7199f7", "name": "Bantam Coffee Counter"}]}, "timezone": "America/New_York"}, {"fsq_id": "5009cf051648f2faf6a1f18a", "categories": [{"id": 10032, "name": "Night Club", "icon": {"prefix": "https://ss3.4sqi.net/img/categories_v2/nightlife/nightclub_", "suffix": ".png"}}, {"id": 13009, "name": "Cocktail Bar", "icon": {"prefix": "https://ss3.4sqi.net/img/categories_v2/nightlife/cocktails_", "suffix": ".png"}}, {"id": 13065, "name": "Restaurant", "icon": {"prefix": "https://ss3.4sqi.net/img/categories_v2/food/default_", "suffix": ".png"}}], "chains": [], "distance": 5132, "geocodes": {"main": {"latitude": 40.678593, "longitude": -73.986948}, "roof": {"latitude": 40.678593, "longitude": -73.986948}}, "link": "/v3/places/5009cf051648f2faf6a1f18a", "location": {"address": "514 Union St", "census_block": "360470119012013", "country": "US", "cross_street": "btwn 3rd Ave & Nevins St", "dma": "New York", "formatted_address": "514 Union St (btwn 3rd Ave & Nevins St), Gowanus, NY 11215", "locality": "Gowanus", "neighborhood": ["Boerum Hill"], "postcode": "11215", "region": "NY"}, "name": "The Royal Palms Shuffleboard Club", "related_places": {}, "timezone": "America/New_York"}, {"fsq_id": "3fd66200f964a52023e41ee3", "categories": [{"id": 10032, "name": "Night Club", "icon": {"prefix": "https://ss3.4sqi.net/img/categories_v2/nightlife/nightclub_", "suffix": ".png"}}, {"id": 13003, "name": "Bar", "icon": {"prefix": "https://ss3.4sqi.net/img/categories_v2/nightlife/pub_", "suffix": ".png"}}, {"id": 13068, "name": "American Restaurant", "icon": {"prefix": "https://ss3.4sqi.net/img/categories_v2/food/default_", "suffix": ".png"}}], "chains": [], "distance": 3279, "geocodes": {"main": {"latitude": 40.752274, "longitude": -74.00849}, "roof": {"latitude": 40.752274, "longitude": -74.00849}}, "link": "/v3/places/3fd66200f964a52023e41ee3", "location": {"address": "205 12th Ave", "census_block": "360610099020001", "country": "US", "cross_street": "at Pier 66 on W 26th St", "dma": "New York", "formatted_address": "205 12th Ave (at Pier 66 on W 26th St), New York, NY 10001", "locality": "New York", "neighborhood": ["Chelsea"], "postcode": "10001", "region": "NY"}, "name": "The Frying Pan", "related_places": {}, "timezone": "America/New_York"}, {"fsq_id": "57cf9dfb498e101689d5f682", "categories": [{"id": 13009, "name": "Cocktail Bar", "icon": {"prefix": "https://ss3.4sqi.net/img/categories_v2/nightlife/cocktails_", "suffix": ".png"}}, {"id": 13065, "name": "Restaurant", "icon": {"prefix": "https://ss3.4sqi.net/img/categories_v2/food/default_", "suffix": ".png"}}], "chains": [], "distance": 6905, "geocodes": {"main": {"latitude": 40.708219, "longitude": -73.923612}, "roof": {"latitude": 40.708219, "longitude": -73.923612}}, "link": "/v3/places/57cf9dfb498e101689d5f682", "location": {"address": "1237 Flushing Ave", "census_block": "360470453001015", "country": "US", "cross_street": "Wyckoff St.", "dma": "New York", "formatted_address": "1237 Flushing Ave (Wyckoff St.), Brooklyn, NY 11237", "locality": "Brooklyn", "neighborhood": ["Bushwick"], "postcode": "11237", "region": "NY"}, "name": "Jupiter Disco", "related_places": {}, "timezone": "America/New_York"}, {"fsq_id": "4158a980f964a5203c1d1fe3", "categories": [{"id": 10003, "name": "Arcade", "icon": {"prefix": "https://ss3.4sqi.net/img/categories_v2/arts_entertainment/arcade_", "suffix": ".png"}}, {"id": 13003, "name": "Bar", "icon": {"prefix": "https://ss3.4sqi.net/img/categories_v2/nightlife/pub_", "suffix": ".png"}}, {"id": 13065, "name": "Restaurant", "icon": {"prefix": "https://ss3.4sqi.net/img/categories_v2/food/default_", "suffix": ".png"}}], "chains": [], "distance": 4534, "geocodes": {"main": {"latitude": 40.71202, "longitude": -73.950988}, "roof": {"latitude": 40.71202, "longitude": -73.950988}}, "link": "/v3/places/4158a980f964a5203c1d1fe3", "location": {"address": "388 Union Ave", "census_block": "360470513001002", "country": "US", "cross_street": "btwn Ainslie & Powers St", "dma": "New York", "formatted_address": "388 Union Ave (btwn Ainslie & Powers St), Brooklyn, NY 11211", "locality": "Brooklyn", "neighborhood": ["South Side"], "postcode": "11211", "region": "NY"}, "name": "Barcade", "related_places": {}, "timezone": "America/New_York"}, {"fsq_id": "4cb215401463a143b6a2aaa9", "categories": [{"id": 13003, "name": "Bar", "icon": {"prefix": "https://ss3.4sqi.net/img/categories_v2/nightlife/pub_", "suffix": ".png"}}, {"id": 13035, "name": "Coffee Shop", "icon": {"prefix": "https://ss3.4sqi.net/img/categories_v2/food/coffeeshop_", "suffix": ".png"}}, {"id": 13068, "name": "American Restaurant", "icon": {"prefix": "https://ss3.4sqi.net/img/categories_v2/food/default_", "suffix": ".png"}}], "chains": [], "distance": 4535, "geocodes": {"main": {"latitude": 40.711776, "longitude": -73.95142}}, "link": "/v3/places/4cb215401463a143b6a2aaa9", "location": {"address": "379 Union Ave", "census_block": "360470513003004", "country": "US", "cross_street": "at Powers St", "dma": "New York", "formatted_address": "379 Union Ave (at Powers St), Brooklyn, NY 11211", "locality": "Brooklyn", "neighborhood": ["South Side"], "postcode": "11211", "region": "NY"}, "name": "The West", "related_places": {}, "timezone": "America/New_York"}, {"fsq_id": "56ca5095498edfac0089baf8", "categories": [{"id": 13003, "name": "Bar", "icon": {"prefix": "https://ss3.4sqi.net/img/categories_v2/nightlife/pub_", "suffix"